{
	"markers": [
		{"ShopNo":5814,"Location":"RCIPL Retail CMR Mall VIZAG AP","Address":"CMR City Centre,M-N0-52-1-35,36 & 38First Floor, New Resapuvanipalem,Maddilapalem, Visakhapatnam,530013530013 Vizag","Pincode":530020,"PhoneNumber":"09505022246","City":"Vizag","State":"Andhra Pradesh","Lat":17.733705,"Long":83.318043},
		{"ShopNo":5751,"Location":"Retail City Center Mall Rohini Delhi","Address":"UNIT NOS. 221-225, SF, CITY CENTER MALL, ROHINI, NEW DELHI 110085","Pincode":110085,"PhoneNumber":"09717555062","City":"Delhi","State":"Delhi","Lat":28.717645,"Long":77.115257},
		{"ShopNo":1951,"Location":"RRL Retail Vadodara Gujarat","Address":"1F, AIMS Oxygen, Nr TVS star showroom, Old Padra Road, AIMS Oxygen, Vadodara GJ 390020","Pincode":390020,"PhoneNumber":"8140214985/08511125164 ","City":"Vadodara","State":"Gujarat","Lat":22.284677,"Long":73.164958},
		{"ShopNo":1952,"Location":"RRL Retail Reliance Mall Rajkot","Address":"First Floor, Opp.  ISCON Prozone Mall, 150 Ft. kalawad ring road, Kalawad, Rajkot GJ 360001","Pincode":360001,"PhoneNumber":"7588465656/8600811385","City":"Rajkot","State":"Gujarat","Lat":16.698795,"Long":74.230712},
		{"ShopNo":1908,"Location":"RCPL  Retail Koramangla Bangalore","Address":"SITE NO. 6/B, BBMP PID NO. 87-7-6/B, 80 FT. ROAD, 7TH BLOCK, KORAMANGALA, BANGALORE-560034 KARNATAKA","Pincode":560034,"PhoneNumber":"09686575500","City":"Bangalore","State":"Karnataka","Lat":12.936303,"Long":77.616498},
		{"ShopNo":1910,"Location":"RRL Retail Forum Mall Mangalore","Address":"GF, SHOP NO. 26 & 27, FORUM MALL, PANDESHWAR, MAIDAN ROAD, MANGALORE, 575001, KARNATAKA. ","Pincode":575001,"PhoneNumber":"09900527851","City":"Mangalore","State":"Karnataka","Lat":12.858421,"Long":74.838075},
		{"ShopNo":1929,"Location":"RRL Retail Habitat Mall Mysore","Address":"Unit No.F 13 1st Floor, B.M.Habitat Mall, Jayalakshmipuram, Gokulam Main Road, Mysore, Karnataka – 570012","Pincode":570012,"PhoneNumber":"09880009143","City":"Mysore","State":"Karnataka","Lat":12.321525,"Long":76.620624},
		{"ShopNo":1932,"Location":"RRL Retail Indira Nagar Bangalore","Address":"SHREYAS PLAZA, NO. 2012, 100 FEET ROAD, HAL 2ND STAGE, INDIRA NAGAR, BANGALORE 560038","Pincode":560038,"PhoneNumber":"9902554436/9845765706","City":"Bangalore","State":"Karnataka","Lat":12.965333,"Long":77.641566},
		{"ShopNo":5836,"Location":"RCIPL Retail Jayanagar Bangalore Karnataka","Address":"GF, No. 76, (Old No.387), PID No 60-102-76, 11th Main, 3rd Block, Jayanagar, Bangalore, Karnataka - 560011","Pincode":560011,"PhoneNumber":"9916085777","City":"Bangalore","State":"Karnataka","Lat":12.931008,"Long":77.586094},
		{"ShopNo":5837,"Location":"RCIPL Retail GopalanInovationMalBangalore","Address":"Gopalan Innovation Mall, FF, Shop No. F5&F6, Bannerghatta Road, J.P. Nagar 3rd Phase, Bangalore, Karnataka - 560076","Pincode":560076,"PhoneNumber":"9035901774","City":"Bangalore","State":"Karnataka","Lat":12.91463,"Long":77.600083},
		{"ShopNo":5913,"Location":"RCIPL Retail Elements Mall Bangalore","Address":"","Pincode":null,"PhoneNumber":"","City":"Bangalore","State":"Karnataka","Lat":13.045018,"Long":77.626701},
		{"ShopNo":1923,"Location":"RRL Retail Oberon Mall Cochin","Address":"2ND FLOOR, OBERON MALL, NH 47 BYE PASS, EDAPALLY, COCHIN 682019. KERALA","Pincode":682019,"PhoneNumber":"09846956469","City":"Kochi","State":"Kerala","Lat":9.655341,"Long":76.318755},
		{"ShopNo":1945,"Location":"RRL Retail Tapadia Mall Kolhapur MH","Address":"RSM 13&14, First Floor, No 61, Tapadia City Centre, Laxmipuri, Subhash road, Old dalal market,Kolhapur, Maharashtra 416002","Pincode":416002,"PhoneNumber":"7588465656/8600811385","City":"Kolhapur","State":"Maharashtra","Lat":16.698996,"Long":74.230701},
		{"ShopNo":1947,"Location":"RRL Retail Phoenix Market City Kurla Mumbai","Address":"G-19, Phoenix Market city, Lal Bahadur Shastri Marg, Kurla West, Mumbai, Maharashtra - 40007","Pincode":400070,"PhoneNumber":"07710079725","City":"Mumbai","State":"Maharashtra","Lat":19.086899,"Long":72.889016},
		{"ShopNo":1949,"Location":"RRL Retail Kingstone court Virar","Address":"Ground Floor, Kingstone Court, Opp Viva College Road, Virar (West) 401303","Pincode":401303,"PhoneNumber":"09967141611","City":"Virar","State":"Maharashtra","Lat":24.36388,"Long":73.42069},
		{"ShopNo":5769,"Location":"RCIPL Retail Phoenix Market City Pune","Address":"G-19 & 20, Phoenix Market City, S No. 207, Behind Baker Gauges, Vimana Nagar, Pune : 411014","Pincode":411014,"PhoneNumber":"08600945136","City":"Pune","State":"Maharashtra","Lat":18.562168,"Long":73.916398},
		{"ShopNo":5945,"Location":"RCIPL Retail Westend Mall Aundh Pune","Address":"","Pincode":null,"PhoneNumber":"","City":"Pune","State":"Maharashtra","Lat":18.563424,"Long":73.807563},
		{"ShopNo":5904,"Location":"RCIPL Retail Celebration Mall Udaipur RJ","Address":"","Pincode":null,"PhoneNumber":"","City":"Udaipur","State":"Rajasthan","Lat":24.610776,"Long":73.701913},
		{"ShopNo":5905,"Location":"RCIPL Retail Queens Road Jaipur RJ","Address":"","Pincode":null,"PhoneNumber":"","City":"Jaipur","State":"Rajasthan","Lat":26.911368,"Long":75.752539},
		{"ShopNo":1926,"Location":"RRL Retail Fun Republic Coimbatore","Address":"SHOP NO. SF MED 03, FUN REPUBLIC, AVINASHI ROAD, PEELAMEDU, COIMBATORE, TAMILNADU 641001","Pincode":641001,"PhoneNumber":"09600011864","City":"Coimbatore","State":"Tamil Nadu","Lat":11.023354,"Long":77.010624},
		{"ShopNo":1927,"Location":"RRL Retail Vishal Mall Madurai","Address":"2F, VISHAL MALL, NO.12, JAWAHAR ROAD, MEENAKSHI HOUSE, CHOKKIKULAM, MADURAI, 625002- TN","Pincode":625002,"PhoneNumber":"09003167058","City":"Madurai","State":"Tamil Nadu","Lat":9.938212,"Long":78.135924},
		{"ShopNo":5742,"Location":"RCIPL Retail Phoenix Market Chennai","Address":"S-28-F, Second Floor, Phoenix Market City, Old No 66, New No. 142 Velachery Road, Chennai, Tamilnadu : 600042","Pincode":600042,"PhoneNumber":"9710042401/9600014437","City":"Chennai","State":"Tamil Nadu","Lat":12.991713,"Long":80.217262},
		{"ShopNo":5835,"Location":"RCIPL DB Road RS Puram Coimbatore TN","Address":"Ground Floor, No. 156-157 (Old No. 49), DB Road, RS Puram, Coimbatore – 641002","Pincode":641002,"PhoneNumber":"09600011864","City":"Coimbatore","State":"Tamil Nadu","Lat":11.004551,"Long":76.951606},
		{"ShopNo":1920,"Location":"RRL Retail City Centre Hyderabad","Address":"1ST FLOOR, SHOP NOS.104, 105,106, CITY CENTRE, BANJARA HILLS, ROAD NO.1, HYDERABAD, Telangana 500034. ","Pincode":500034,"PhoneNumber":"08008501413","City":"Hyderabad","State":"Telangana","Lat":17.415471,"Long":78.449339},
		{"ShopNo":5882,"Location":"RCIPL Retail Axis Mall Kolkata WB","Address":"","Pincode":null,"PhoneNumber":"","City":"Kolkata","State":"West Bengal","Lat":22.34452,"Long":88.27354}
	]

}